[
{"unit_id":"000001","name":"小区01","province":"浙江省","city_name":"文成","lat":"120.08","lng":"27.08","city_code":"12345"},
{"unit_id":"000002","name":"小区02","province":"浙江省","city_name":"苍南","lat":"120.36","lng":"27.53","city_code":"12345"},
{"unit_id":"000003","name":"小区03","province":"浙江省","city_name":"湖州","lat":"120.1","lng":"30.86","city_code":"12345"},
{"unit_id":"000004","name":"小区04","province":"浙江省","city_name":"平湖","lat":"121.02","lng":"30.7","city_code":"12345"},
{"unit_id":"000005","name":"小区05","province":"浙江省","city_name":"桐乡","lat":"120.54","lng":"30.64","city_code":"12345"},
{"unit_id":"000006","name":"小区06","province":"浙江省","city_name":"安吉","lat":"119.68","lng":"30.68","city_code":"12345"},
{"unit_id":"000007","name":"小区07","province":"浙江省","city_name":"嘉善","lat":"120.92","lng":"30.84","city_code":"12345"},
{"unit_id":"000009","name":"小区09","province":"浙江省","city_name":"海盐","lat":"120.92","lng":"30.53","city_code":"12345"},
{"unit_id":"000010","name":"小区10","province":"浙江省","city_name":"海宁","lat":"120.69","lng":"30.53","city_code":"12345"},
{"unit_id":"000011","name":"小区11","province":"浙江省","city_name":"德清","lat":"120.08","lng":"30.54","city_code":"12345"},
{"unit_id":"000012","name":"小区12","province":"浙江省","city_name":"长兴","lat":"119.91","lng":"30.01","city_code":"12345"},
{"unit_id":"000014","name":"小区14","province":"浙江省","city_name":"岱山","lat":"122.2","lng":"30.26","city_code":"12345"},
{"unit_id":"000015","name":"小区15","province":"浙江省","city_name":"嵊四","lat":"122.45","lng":"30.72","city_code":"12345"},
{"unit_id":"000016","name":"小区16","province":"浙江省","city_name":"普陀","lat":"122.3","lng":"29.97","city_code":"12345"},
{"unit_id":"000018","name":"小区18","province":"浙江省","city_name":"象山","lat":"121.8","lng":"29.48","city_code":"12345"},
{"unit_id":"000019","name":"小区19","province":"浙江省","city_name":"奉化","lat":"121.41","lng":"29.66","city_code":"12345"},
{"unit_id":"000020","name":"小区20","province":"浙江省","city_name":"慈溪","lat":"121.23","lng":"30.18","city_code":"12345"},
{"unit_id":"000021","name":"小区21","province":"浙江省","city_name":"宁海","lat":"121.42","lng":"29.3","city_code":"12345"},
{"unit_id":"000022","name":"小区22","province":"浙江省","city_name":"余姚","lat":"121.16","lng":"30.04","city_code":"12345"},
{"unit_id":"000023","name":"小区23","province":"浙江省","city_name":"绍兴","lat":"120.58","lng":"30.01","city_code":"12345"},
{"unit_id":"000024","name":"小区24","province":"浙江省","city_name":"新昌","lat":"120.89","lng":"29.49","city_code":"12345"},
{"unit_id":"000025","name":"小区25","province":"浙江省","city_name":"诸暨","lat":"120.23","lng":"29.71","city_code":"12345"},
{"unit_id":"000026","name":"小区26","province":"浙江省","city_name":"上虞","lat":"120.87","lng":"30.03","city_code":"12345"},
{"unit_id":"000028","name":"小区28","province":"浙江省","city_name":"椒江","lat":"121.44","lng":"28.67","city_code":"12345"},
{"unit_id":"000029","name":"小区29","province":"浙江省","city_name":"临海","lat":"121.13","lng":"28.8","city_code":"12345"},
{"unit_id":"000030","name":"小区30","province":"浙江省","city_name":"三门","lat":"121.38","lng":"29.11","city_code":"12345"},
{"unit_id":"000032","name":"小区32","province":"浙江省","city_name":"仙居","lat":"120.73","lng":"28.85","city_code":"12345"},
{"unit_id":"000033","name":"小区33","province":"浙江省","city_name":"天台","lat":"121.03","lng":"29.15","city_code":"12345"},
{"unit_id":"000034","name":"小区34","province":"浙江省","city_name":"黄岩","lat":"121.27","lng":"28.64","city_code":"12345"},
{"unit_id":"000035","name":"小区35","province":"浙江省","city_name":"玉环","lat":"121.23","lng":"28.14","city_code":"12345"},
{"unit_id":"000037","name":"小区37","province":"浙江省","city_name":"青田","lat":"120.28","lng":"28.45","city_code":"12345"},
{"unit_id":"000038","name":"小区38","province":"浙江省","city_name":"庆无","lat":"119.06","lng":"27.61","city_code":"12345"},
{"unit_id":"000046","name":"小区46","province":"浙江省","city_name":"东阳","lat":"120.23","lng":"29.27","city_code":"12345"},
{"unit_id":"000047","name":"小区47","province":"浙江省","city_name":"武义","lat":"119.81","lng":"28.9","city_code":"12345"},
{"unit_id":"000048","name":"小区48","province":"浙江省","city_name":"江山","lat":"118.61","lng":"28.74","city_code":"12345"},
{"unit_id":"000049","name":"小区49","province":"浙江省","city_name":"开化","lat":"118.39","lng":"29.15","city_code":"12345"},
{"unit_id":"000050","name":"小区50","province":"浙江省","city_name":"衢州","lat":"118.88","lng":"28.97","city_code":"12345"},
{"unit_id":"000051","name":"小区51","province":"浙江省","city_name":"兰溪","lat":"119.48","lng":"29.19","city_code":"12345"},
{"unit_id":"000052","name":"小区52","province":"浙江省","city_name":"义乌","lat":"120.06","lng":"29.32","city_code":"12345"},
{"unit_id":"000053","name":"小区53","province":"浙江省","city_name":"永康","lat":"120.02","lng":"28.92","city_code":"12345"},
{"unit_id":"000054","name":"小区54","province":"浙江省","city_name":"常山","lat":"118.5","lng":"28.9","city_code":"12345"},
{"unit_id":"000055","name":"小区55","province":"北京市","city_name":"北京","lat":"116.46","lng":"39.92","city_code":"12345"},
{"unit_id":"000056","name":"小区56","province":"北京市","city_name":"平谷","lat":"117.1","lng":"40.13","city_code":"12345"},
{"unit_id":"000057","name":"小区57","province":"北京市","city_name":"密云","lat":"116.85","lng":"40.37","city_code":"12345"},
{"unit_id":"000058","name":"小区58","province":"北京市","city_name":"顺义","lat":"116.65","lng":"40.13","city_code":"12345"},
{"unit_id":"000059","name":"小区59","province":"北京市","city_name":"通县","lat":"116.67","lng":"39.92","city_code":"12345"},
{"unit_id":"000060","name":"小区60","province":"北京市","city_name":"怀柔","lat":"116.62","lng":"40.32","city_code":"12345"},
{"unit_id":"000061","name":"小区61","province":"北京市","city_name":"大兴","lat":"116.33","lng":"39.73","city_code":"12345"},
{"unit_id":"000062","name":"小区62","province":"北京市","city_name":"房山","lat":"115.98","lng":"39.72","city_code":"12345"},
{"unit_id":"000063","name":"小区63","province":"北京市","city_name":"昌平","lat":"116.2","lng":"40.22","city_code":"12345"},
{"unit_id":"000064","name":"小区64","province":"北京市","city_name":"延庆","lat":"115.97","lng":"40.47","city_code":"12345"},
{"unit_id":"000065","name":"小区65","province":"天津市","city_name":"天津","lat":"117.2","lng":"39.13","city_code":"12345"},
{"unit_id":"000066","name":"小区66","province":"天津市","city_name":"宁河","lat":"117.83","lng":"39.33","city_code":"12345"},
{"unit_id":"000067","name":"小区67","province":"天津市","city_name":"静海","lat":"116.92","lng":"38.93","city_code":"12345"},
{"unit_id":"000068","name":"小区68","province":"天津市","city_name":"蓟县","lat":"117.4","lng":"40.05","city_code":"12345"},
{"unit_id":"000069","name":"小区69","province":"天津市","city_name":"宝坻","lat":"117.3","lng":"39.75","city_code":"12345"},
{"unit_id":"000070","name":"小区70","province":"天津市","city_name":"武清","lat":"117.05","lng":"39.4","city_code":"12345"},
{"unit_id":"000071","name":"小区71","province":"重庆市","city_name":"重庆","lat":"106.54","lng":"29.59","city_code":"12345"},
{"unit_id":"000072","name":"小区72","province":"重庆市","city_name":"綦江","lat":"106.56","lng":"29.41","city_code":"12345"},
{"unit_id":"000073","name":"小区73","province":"重庆市","city_name":"长寿","lat":"106.64","lng":"29.01","city_code":"12345"},
{"unit_id":"000074","name":"小区74","province":"重庆市","city_name":"南桐","lat":"107.04","lng":"29.86","city_code":"12345"},
{"unit_id":"000075","name":"小区75","province":"重庆市","city_name":"合川","lat":"106.28","lng":"29.26","city_code":"12345"},
{"unit_id":"000076","name":"小区76","province":"重庆市","city_name":"潼南","lat":"106.22","lng":"30.03","city_code":"12345"},
{"unit_id":"000077","name":"小区77","province":"重庆市","city_name":"铜梁","lat":"105.8","lng":"30.16","city_code":"12345"},
{"unit_id":"000078","name":"小区78","province":"重庆市","city_name":"壁山","lat":"106.03","lng":"29.86","city_code":"12345"},
{"unit_id":"000079","name":"小区79","province":"重庆市","city_name":"荣昌","lat":"106.21","lng":"29.62","city_code":"12345"},
{"unit_id":"000080","name":"小区80","province":"重庆市","city_name":"大足","lat":"105.59","lng":"29.4","city_code":"12345"},
{"unit_id":"000081","name":"小区81","province":"重庆市","city_name":"永川","lat":"105.71","lng":"29.75","city_code":"12345"},
{"unit_id":"000082","name":"小区82","province":"重庆市","city_name":"万盛","lat":"105.91","lng":"29.38","city_code":"12345"},
{"unit_id":"000083","name":"小区83","province":"上海市","city_name":"上海","lat":"121.48","lng":"31.22","city_code":"12345"},
{"unit_id":"000084","name":"小区84","province":"上海市","city_name":"嘉定","lat":"121.24","lng":"31.4","city_code":"12345"},
{"unit_id":"000085","name":"小区85","province":"上海市","city_name":"宝山","lat":"121.48","lng":"31.41","city_code":"12345"},
{"unit_id":"000086","name":"小区86","province":"上海市","city_name":"川沙","lat":"121.7","lng":"31.19","city_code":"12345"},
{"unit_id":"000087","name":"小区87","province":"上海市","city_name":"南汇","lat":"121.76","lng":"31.05","city_code":"12345"},
{"unit_id":"000088","name":"小区88","province":"上海市","city_name":"奉贤","lat":"121.46","lng":"30.92","city_code":"12345"},
{"unit_id":"000089","name":"小区89","province":"上海市","city_name":"松江","lat":"121.24","lng":"31","city_code":"12345"},
{"unit_id":"000090","name":"小区90","province":"上海市","city_name":"金山","lat":"121.16","lng":"30.89","city_code":"12345"},
{"unit_id":"000091","name":"小区91","province":"上海市","city_name":"青浦","lat":"121.1","lng":"31.15","city_code":"12345"},
{"unit_id":"000092","name":"小区92","province":"上海市","city_name":"崇明","lat":"121.4","lng":"31.73","city_code":"12345"},
{"unit_id":"000093","name":"小区93","province":"河北省","city_name":"石家庄","lat":"114.48","lng":"38.03","city_code":"12345"},
{"unit_id":"000094","name":"小区94","province":"河北省","city_name":"唐山","lat":"118.02","lng":"39.63","city_code":"12345"},
{"unit_id":"000095","name":"小区95","province":"河北省","city_name":"行唐","lat":"114.54","lng":"38.42","city_code":"12345"},
{"unit_id":"000096","name":"小区96","province":"河北省","city_name":"灵寿","lat":"114.38","lng":"38.31","city_code":"12345"},
{"unit_id":"000097","name":"小区97","province":"河北省","city_name":"束鹿","lat":"115.18","lng":"37.94","city_code":"12345"},
{"unit_id":"000098","name":"小区98","province":"河北省","city_name":"晋县","lat":"115.03","lng":"38.03","city_code":"12345"},
{"unit_id":"000099","name":"小区99","province":"河北省","city_name":"藁城","lat":"114.84","lng":"38.03","city_code":"12345"},
{"unit_id":"000100","name":"小区100","province":"河北省","city_name":"高邑","lat":"114.58","lng":"37.62","city_code":"12345"},
{"unit_id":"000101","name":"小区101","province":"河北省","city_name":"赵县","lat":"114.78","lng":"37.76","city_code":"12345"},
{"unit_id":"000102","name":"小区102","province":"河北省","city_name":"井陉","lat":"114.13","lng":"38.03","city_code":"12345"},
{"unit_id":"000103","name":"小区103","province":"河北省","city_name":"获鹿","lat":"114.03","lng":"38.08","city_code":"12345"},
{"unit_id":"000104","name":"小区104","province":"河北省","city_name":"新乐","lat":"114.67","lng":"38.33","city_code":"12345"},
{"unit_id":"000105","name":"小区105","province":"河北省","city_name":"正定","lat":"114.56","lng":"38.13","city_code":"12345"},
{"unit_id":"000106","name":"小区106","province":"河北省","city_name":"深泽","lat":"115.2","lng":"38.2","city_code":"12345"},
{"unit_id":"000107","name":"小区107","province":"河北省","city_name":"无极","lat":"114.96","lng":"38.16","city_code":"12345"},
{"unit_id":"000108","name":"小区108","province":"河北省","city_name":"赞皇","lat":"114.35","lng":"37.65","city_code":"12345"},
{"unit_id":"000109","name":"小区109","province":"河北省","city_name":"元氏","lat":"114.5","lng":"37.74","city_code":"12345"},
{"unit_id":"000110","name":"小区110","province":"河北省","city_name":"栾城","lat":"114.64","lng":"38.87","city_code":"12345"},
{"unit_id":"000111","name":"小区111","province":"河北省","city_name":"平山","lat":"114.24","lng":"38.2","city_code":"12345"},
{"unit_id":"000112","name":"小区112","province":"河北省","city_name":"邯郸","lat":"114.47","lng":"36.6","city_code":"12345"},
{"unit_id":"000113","name":"小区113","province":"河北省","city_name":"永年","lat":"114.5","lng":"36.77","city_code":"12345"},
{"unit_id":"000114","name":"小区114","province":"河北省","city_name":"曲周","lat":"114.92","lng":"36.78","city_code":"12345"},
{"unit_id":"000115","name":"小区115","province":"河北省","city_name":"馆陶","lat":"115.4","lng":"36.47","city_code":"12345"},
{"unit_id":"000116","name":"小区116","province":"河北省","city_name":"魏县","lat":"114.94","lng":"36.37","city_code":"12345"},
{"unit_id":"000117","name":"小区117","province":"河北省","city_name":"成安","lat":"114.68","lng":"36.43","city_code":"12345"},
{"unit_id":"000118","name":"小区118","province":"河北省","city_name":"大名","lat":"115.14","lng":"36.28","city_code":"12345"},
{"unit_id":"000119","name":"小区119","province":"河北省","city_name":"涉县","lat":"113.67","lng":"36.57","city_code":"12345"},
{"unit_id":"000120","name":"小区120","province":"河北省","city_name":"鸡泽","lat":"113.85","lng":"36.95","city_code":"12345"},
{"unit_id":"000121","name":"小区121","province":"河北省","city_name":"丘县","lat":"115.18","lng":"36.84","city_code":"12345"},
{"unit_id":"000122","name":"小区122","province":"辽宁省","city_name":"沈阳","lat":"123.38","lng":"41.8","city_code":"12345"},
{"unit_id":"000123","name":"小区123","province":"辽宁省","city_name":"新民","lat":"122.83","lng":"42","city_code":"12345"},
{"unit_id":"000124","name":"小区124","province":"辽宁省","city_name":"辽中","lat":"122.7","lng":"41.52","city_code":"12345"},
{"unit_id":"000125","name":"小区125","province":"辽宁省","city_name":"大连","lat":"121.62","lng":"38.92","city_code":"12345"},
{"unit_id":"000126","name":"小区126","province":"辽宁省","city_name":"金县","lat":"121.7","lng":"39.13","city_code":"12345"},
{"unit_id":"000127","name":"小区127","province":"辽宁省","city_name":"复县","lat":"121.97","lng":"39.63","city_code":"12345"},
{"unit_id":"000128","name":"小区128","province":"辽宁省","city_name":"新金","lat":"121.95","lng":"39.55","city_code":"12345"},
{"unit_id":"000129","name":"小区129","province":"辽宁省","city_name":"庄河","lat":"122.97","lng":"39.7","city_code":"12345"},
{"unit_id":"000130","name":"小区130","province":"辽宁省","city_name":"长海","lat":"122.58","lng":"39.28","city_code":"12345"},
{"unit_id":"000131","name":"小区131","province":"辽宁省","city_name":"鞍由","lat":"122.85","lng":"41.12","city_code":"12345"},
{"unit_id":"000132","name":"小区132","province":"辽宁省","city_name":"海城","lat":"122.75","lng":"40.85","city_code":"12345"},
{"unit_id":"000133","name":"小区133","province":"辽宁省","city_name":"台安","lat":"122.4","lng":"41.4","city_code":"12345"},
{"unit_id":"000134","name":"小区134","province":"辽宁省","city_name":"抚顺","lat":"123.97","lng":"41.97","city_code":"12345"},
{"unit_id":"000135","name":"小区135","province":"辽宁省","city_name":"新宾","lat":"125.02","lng":"41.72","city_code":"12345"},
{"unit_id":"000136","name":"小区136","province":"辽宁省","city_name":"清原","lat":"124.9","lng":"42.13","city_code":"12345"},
{"unit_id":"000137","name":"小区137","province":"辽宁省","city_name":"本溪","lat":"123.73","lng":"41.3","city_code":"12345"},
{"unit_id":"000138","name":"小区138","province":"辽宁省","city_name":"垣仁","lat":"125.33","lng":"41.28","city_code":"12345"},
{"unit_id":"000139","name":"小区139","province":"辽宁省","city_name":"锦州","lat":"121.15","lng":"41.13","city_code":"12345"},
{"unit_id":"000140","name":"小区140","province":"辽宁省","city_name":"锦县","lat":"121.35","lng":"41.17","city_code":"12345"},
{"unit_id":"000141","name":"小区141","province":"辽宁省","city_name":"义县","lat":"121.22","lng":"41.55","city_code":"12345"},
{"unit_id":"000142","name":"小区142","province":"辽宁省","city_name":"黑山","lat":"122.12","lng":"41.7","city_code":"12345"},
{"unit_id":"000143","name":"小区143","province":"辽宁省","city_name":"北镇","lat":"121.8","lng":"41.6","city_code":"12345"},
{"unit_id":"000144","name":"小区144","province":"辽宁省","city_name":"锦西","lat":"120.83","lng":"40.77","city_code":"12345"},
{"unit_id":"000145","name":"小区145","province":"辽宁省","city_name":"兴城","lat":"120.68","lng":"40.63","city_code":"12345"},
{"unit_id":"000146","name":"小区146","province":"辽宁省","city_name":"绥中","lat":"120.32","lng":"40.35","city_code":"12345"},
{"unit_id":"000147","name":"小区147","province":"辽宁省","city_name":"丹东","lat":"124.37","lng":"40.13","city_code":"12345"},
{"unit_id":"000148","name":"小区148","province":"辽宁省","city_name":"东沟","lat":"124.13","lng":"39.97","city_code":"12345"},
{"unit_id":"000149","name":"小区149","province":"江苏省","city_name":"南京","lat":"118.78","lng":"32.04","city_code":"12345"},
{"unit_id":"000150","name":"小区150","province":"江苏省","city_name":"江宁","lat":"118.83","lng":"31.95","city_code":"12345"},
{"unit_id":"000151","name":"小区151","province":"江苏省","city_name":"六合","lat":"118.83","lng":"32.36","city_code":"12345"},
{"unit_id":"000152","name":"小区152","province":"江苏省","city_name":"江浦","lat":"118.62","lng":"32.07","city_code":"12345"},
{"unit_id":"000153","name":"小区153","province":"江苏省","city_name":"徐州","lat":"117.2","lng":"34.26","city_code":"12345"},
{"unit_id":"000154","name":"小区154","province":"江苏省","city_name":"连云港","lat":"119.16","lng":"34.59","city_code":"12345"},
{"unit_id":"000155","name":"小区155","province":"江苏省","city_name":"南通","lat":"120.86","lng":"32.01","city_code":"12345"},
{"unit_id":"000156","name":"小区156","province":"江苏省","city_name":"苏州","lat":"120.62","lng":"31.32","city_code":"12345"},
{"unit_id":"000157","name":"小区157","province":"江苏省","city_name":"无锡","lat":"120.29","lng":"31.59","city_code":"12345"},
{"unit_id":"000158","name":"小区158","province":"江苏省","city_name":"常州","lat":"119.95","lng":"31.79","city_code":"12345"},
{"unit_id":"000159","name":"小区159","province":"江苏省","city_name":"丰县","lat":"116.57","lng":"34.79","city_code":"12345"},
{"unit_id":"000160","name":"小区160","province":"江苏省","city_name":"沛县","lat":"116.93","lng":"34.73","city_code":"12345"},
{"unit_id":"000161","name":"小区161","province":"江苏省","city_name":"赣榆","lat":"119.11","lng":"34.83","city_code":"12345"},
{"unit_id":"000162","name":"小区162","province":"江苏省","city_name":"东海","lat":"118.75","lng":"34.54","city_code":"12345"},
{"unit_id":"000163","name":"小区163","province":"江苏省","city_name":"新沂","lat":"118.33","lng":"34.38","city_code":"12345"},
{"unit_id":"000164","name":"小区164","province":"江苏省","city_name":"邳县","lat":"117.97","lng":"34.3","city_code":"12345"},
{"unit_id":"000165","name":"小区165","province":"江苏省","city_name":"睢宁","lat":"117.94","lng":"33.89","city_code":"12345"},
{"unit_id":"000166","name":"小区166","province":"江苏省","city_name":"铜山","lat":"117.2","lng":"34.26","city_code":"12345"},
{"unit_id":"000167","name":"小区167","province":"江苏省","city_name":"清江","lat":"119.02","lng":"33.59","city_code":"12345"},
{"unit_id":"000168","name":"小区168","province":"江苏省","city_name":"灌云","lat":"119.23","lng":"34.3","city_code":"12345"},
{"unit_id":"000169","name":"小区169","province":"江苏省","city_name":"灌南","lat":"119.36","lng":"34.09","city_code":"12345"},
{"unit_id":"000170","name":"小区170","province":"江苏省","city_name":"沭阳","lat":"118.79","lng":"34.12","city_code":"12345"},
{"unit_id":"000171","name":"小区171","province":"江苏省","city_name":"宿迁","lat":"118.3","lng":"33.96","city_code":"12345"},
{"unit_id":"000172","name":"小区172","province":"江苏省","city_name":"泗阳","lat":"118.68","lng":"33.73","city_code":"12345"},
{"unit_id":"000173","name":"小区173","province":"江苏省","city_name":"盱眙","lat":"118.05","lng":"33","city_code":"12345"},
{"unit_id":"000174","name":"小区174","province":"江苏省","city_name":"涟水","lat":"119.26","lng":"33.77","city_code":"12345"},
{"unit_id":"000175","name":"小区175","province":"江苏省","city_name":"淮阴","lat":"119.02","lng":"33.62","city_code":"12345"},
{"unit_id":"000176","name":"小区176","province":"江苏省","city_name":"淮安","lat":"119.15","lng":"33.5","city_code":"12345"},
{"unit_id":"000177","name":"小区177","province":"江苏省","city_name":"洪泽","lat":"118.85","lng":"33.28","city_code":"12345"},
{"unit_id":"000178","name":"小区178","province":"江苏省","city_name":"泗洪","lat":"118.23","lng":"33.46","city_code":"12345"},
{"unit_id":"000179","name":"小区179","province":"福建省","city_name":"福州","lat":"119.3","lng":"26.08","city_code":"12345"},
{"unit_id":"000180","name":"小区180","province":"福建省","city_name":"闽侯","lat":"119.14","lng":"26.16","city_code":"12345"},
{"unit_id":"000181","name":"小区181","province":"福建省","city_name":"厦门","lat":"118.1","lng":"24.46","city_code":"12345"},
{"unit_id":"000182","name":"小区182","province":"福建省","city_name":"同安","lat":"118.15","lng":"24.74","city_code":"12345"},
{"unit_id":"000183","name":"小区183","province":"福建省","city_name":"南平 ","lat":"118.16","lng":"26.65","city_code":"12345"},
{"unit_id":"000184","name":"小区184","province":"福建省","city_name":"南平 ","lat":"118.11","lng":"27.34","city_code":"12345"},
{"unit_id":"000185","name":"小区185","province":"福建省","city_name":"建瓯","lat":"118.32","lng":"27.05","city_code":"12345"},
{"unit_id":"000186","name":"小区186","province":"福建省","city_name":"浦城","lat":"118.55","lng":"27.92","city_code":"12345"},
{"unit_id":"000187","name":"小区187","province":"福建省","city_name":"邵武","lat":"117.48","lng":"27.34","city_code":"12345"},
{"unit_id":"000188","name":"小区188","province":"福建省","city_name":"顺昌","lat":"117.8","lng":"26.8","city_code":"12345"},
{"unit_id":"000189","name":"小区189","province":"福建省","city_name":"崇安","lat":"118.02","lng":"27.76","city_code":"12345"},
{"unit_id":"000190","name":"小区190","province":"福建省","city_name":"光泽","lat":"117.34","lng":"27.54","city_code":"12345"},
{"unit_id":"000191","name":"小区191","province":"福建省","city_name":"松溪","lat":"118.77","lng":"27.53","city_code":"12345"},
{"unit_id":"000192","name":"小区192","province":"福建省","city_name":"政和","lat":"118.85","lng":"27.38","city_code":"12345"},
{"unit_id":"000193","name":"小区193","province":"福建省","city_name":"宁德","lat":"119.52","lng":"26.65","city_code":"12345"},
{"unit_id":"000194","name":"小区194","province":"福建省","city_name":"福安","lat":"119.65","lng":"27.09","city_code":"12345"},
{"unit_id":"000195","name":"小区195","province":"福建省","city_name":"连江","lat":"119.53","lng":"26.2","city_code":"12345"},
{"unit_id":"000196","name":"小区196","province":"福建省","city_name":"福鼎","lat":"120.2","lng":"27.34","city_code":"12345"},
{"unit_id":"000197","name":"小区197","province":"福建省","city_name":"霞浦","lat":"120","lng":"26.89","city_code":"12345"},
{"unit_id":"000198","name":"小区198","province":"福建省","city_name":"吉田","lat":"118.74","lng":"26.59","city_code":"12345"},
{"unit_id":"000199","name":"小区199","province":"福建省","city_name":"罗源","lat":"119.55","lng":"26.49","city_code":"12345"},
{"unit_id":"000200","name":"小区200","province":"福建省","city_name":"寿宁","lat":"119.5","lng":"27.47","city_code":"12345"},
{"unit_id":"000201","name":"小区201","province":"福建省","city_name":"周宁","lat":"119.36","lng":"27.12","city_code":"12345"},
{"unit_id":"000202","name":"小区202","province":"福建省","city_name":"屏南","lat":"118.98","lng":"26.92","city_code":"12345"},
{"unit_id":"000203","name":"小区203","province":"福建省","city_name":"柘荣","lat":"119.89","lng":"27.25","city_code":"12345"},
{"unit_id":"000204","name":"小区204","province":"福建省","city_name":"莆田","lat":"119","lng":"25.44","city_code":"12345"},
{"unit_id":"000205","name":"小区205","province":"福建省","city_name":"仙游","lat":"118.7","lng":"25.37","city_code":"12345"},
{"unit_id":"000206","name":"小区206","province":"福建省","city_name":"福清","lat":"119.39","lng":"25.73","city_code":"12345"},
{"unit_id":"000207","name":"小区207","province":"福建省","city_name":"长乐","lat":"119.52","lng":"25.96","city_code":"12345"},
{"unit_id":"000208","name":"小区208","province":"福建省","city_name":"永泰","lat":"118.95","lng":"25.88","city_code":"12345"},
{"unit_id":"000209","name":"小区209","province":"山东省","city_name":"济南","lat":"117","lng":"36.65","city_code":"12345"},
{"unit_id":"000210","name":"小区210","province":"山东省","city_name":"历城","lat":"117.07","lng":"36.69","city_code":"12345"},
{"unit_id":"000211","name":"小区211","province":"山东省","city_name":"长清","lat":"116.73","lng":"36.55","city_code":"12345"},
{"unit_id":"000212","name":"小区212","province":"山东省","city_name":"章丘","lat":"117.53","lng":"36.72","city_code":"12345"},
{"unit_id":"000213","name":"小区213","province":"山东省","city_name":"青岛","lat":"120.33","lng":"36.07","city_code":"12345"},
{"unit_id":"000214","name":"小区214","province":"山东省","city_name":"崂山","lat":"120.42","lng":"36.15","city_code":"12345"},
{"unit_id":"000215","name":"小区215","province":"山东省","city_name":"胶南","lat":"119.97","lng":"35.88","city_code":"12345"},
{"unit_id":"000216","name":"小区216","province":"山东省","city_name":"即墨","lat":"120.45","lng":"36.38","city_code":"12345"},
{"unit_id":"000217","name":"小区217","province":"山东省","city_name":"胶县","lat":"120","lng":"36.28","city_code":"12345"},
{"unit_id":"000218","name":"小区218","province":"山东省","city_name":"淄博","lat":"118.05","lng":"36.78","city_code":"12345"},
{"unit_id":"000219","name":"小区219","province":"山东省","city_name":"枣庄","lat":"117.57","lng":"34.86","city_code":"12345"},
{"unit_id":"000220","name":"小区220","province":"山东省","city_name":"滕县","lat":"117.17","lng":"35.09","city_code":"12345"},
{"unit_id":"000221","name":"小区221","province":"山东省","city_name":"东营","lat":"118.49","lng":"37.46","city_code":"12345"},
{"unit_id":"000222","name":"小区222","province":"山东省","city_name":"垦利","lat":"118.54","lng":"37.59","city_code":"12345"},
{"unit_id":"000223","name":"小区223","province":"山东省","city_name":"利津","lat":"118.25","lng":"37.49","city_code":"12345"},
{"unit_id":"000224","name":"小区224","province":"山东省","city_name":"德州","lat":"116.29","lng":"37.45","city_code":"12345"},
{"unit_id":"000225","name":"小区225","province":"山东省","city_name":"宁津","lat":"116.8","lng":"37.64","city_code":"12345"},
{"unit_id":"000226","name":"小区226","province":"山东省","city_name":"乐陵","lat":"117.22","lng":"37.74","city_code":"12345"},
{"unit_id":"000227","name":"小区227","province":"山东省","city_name":"商河","lat":"117.15","lng":"37.31","city_code":"12345"},
{"unit_id":"000228","name":"小区228","province":"山东省","city_name":"济阳","lat":"117.2","lng":"36.97","city_code":"12345"},
{"unit_id":"000229","name":"小区229","province":"山东省","city_name":"禹城","lat":"116.66","lng":"36.95","city_code":"12345"},
{"unit_id":"000230","name":"小区230","province":"山东省","city_name":"夏津","lat":"116","lng":"36.95","city_code":"12345"},
{"unit_id":"000231","name":"小区231","province":"山东省","city_name":"陵县","lat":"116.58","lng":"37.34","city_code":"12345"},
{"unit_id":"000232","name":"小区232","province":"山东省","city_name":"庆云","lat":"117.37","lng":"37.37","city_code":"12345"},
{"unit_id":"000233","name":"小区233","province":"山东省","city_name":"临邑","lat":"116.86","lng":"37.2","city_code":"12345"},
{"unit_id":"000234","name":"小区234","province":"山东省","city_name":"齐河","lat":"116.76","lng":"36.79","city_code":"12345"},
{"unit_id":"000235","name":"小区235","province":"山东省","city_name":"平原","lat":"116.44","lng":"37.16","city_code":"12345"},
{"unit_id":"000236","name":"小区236","province":"山东省","city_name":"武城","lat":"116.08","lng":"37.2","city_code":"12345"},
{"unit_id":"000237","name":"小区237","province":"山东省","city_name":"滨州","lat":"118.03","lng":"37.36","city_code":"12345"},
{"unit_id":"000238","name":"小区238","province":"湖北省","city_name":"武汉","lat":"114.31","lng":"30.52","city_code":"12345"},
{"unit_id":"000239","name":"小区239","province":"湖北省","city_name":"武昌","lat":"114.33","lng":"30.35","city_code":"12345"},
{"unit_id":"000240","name":"小区240","province":"湖北省","city_name":"汉阳","lat":"114.02","lng":"30.57","city_code":"12345"},
{"unit_id":"000241","name":"小区241","province":"湖北省","city_name":"黄石","lat":"115.09","lng":"30.2","city_code":"12345"},
{"unit_id":"000242","name":"小区242","province":"湖北省","city_name":"十堰","lat":"110.79","lng":"32.65","city_code":"12345"},
{"unit_id":"000243","name":"小区243","province":"湖北省","city_name":"沙市","lat":"112.24","lng":"30.32","city_code":"12345"},
{"unit_id":"000244","name":"小区244","province":"湖北省","city_name":"宜昌","lat":"111.3","lng":"30.7","city_code":"12345"},
{"unit_id":"000245","name":"小区245","province":"湖北省","city_name":"襄樊","lat":"112.14","lng":"30.02","city_code":"12345"},
{"unit_id":"000246","name":"小区246","province":"湖北省","city_name":"孝感","lat":"113.91","lng":"31.92","city_code":"12345"},
{"unit_id":"000247","name":"小区247","province":"湖北省","city_name":"黄陂","lat":"114.36","lng":"30.88","city_code":"12345"},
{"unit_id":"000248","name":"小区248","province":"湖北省","city_name":"汉川","lat":"113.59","lng":"30.63","city_code":"12345"},
{"unit_id":"000249","name":"小区249","province":"湖北省","city_name":"云梦","lat":"113.73","lng":"31.02","city_code":"12345"},
{"unit_id":"000250","name":"小区250","province":"湖北省","city_name":"应山","lat":"113.81","lng":"31.62","city_code":"12345"},
{"unit_id":"000251","name":"小区251","province":"湖北省","city_name":"大悟","lat":"114.09","lng":"31.56","city_code":"12345"},
{"unit_id":"000252","name":"小区252","province":"湖北省","city_name":"应城","lat":"113.6","lng":"30.94","city_code":"12345"},
{"unit_id":"000253","name":"小区253","province":"湖北省","city_name":"安陆","lat":"113.69","lng":"31.25","city_code":"12345"},
{"unit_id":"000254","name":"小区254","province":"湖北省","city_name":"鄂城","lat":"114.87","lng":"30.38","city_code":"12345"},
{"unit_id":"000255","name":"小区255","province":"湖北省","city_name":"黄冈","lat":"114.87","lng":"30.44","city_code":"12345"},
{"unit_id":"000256","name":"小区256","province":"湖北省","city_name":"新洲","lat":"114.8","lng":"31.84","city_code":"12345"},
{"unit_id":"000257","name":"小区257","province":"湖北省","city_name":"红安","lat":"114.61","lng":"31.29","city_code":"12345"},
{"unit_id":"000258","name":"小区258","province":"湖北省","city_name":"麻城","lat":"115","lng":"31.17","city_code":"12345"},
{"unit_id":"000259","name":"小区259","province":"湖北省","city_name":"罗川","lat":"115.37","lng":"30.79","city_code":"12345"},
{"unit_id":"000260","name":"小区260","province":"湖北省","city_name":"浠水","lat":"115.22","lng":"30.46","city_code":"12345"},
{"unit_id":"000261","name":"小区261","province":"湖北省","city_name":"蕲春","lat":"115.3","lng":"30.24","city_code":"12345"},
{"unit_id":"000262","name":"小区262","province":"湖北省","city_name":"黄梅","lat":"115.93","lng":"30.09","city_code":"12345"},
{"unit_id":"000263","name":"小区263","province":"湖北省","city_name":"广济","lat":"115.56","lng":"29.85","city_code":"12345"},
{"unit_id":"000264","name":"小区264","province":"湖北省","city_name":"英山","lat":"115.57","lng":"30.75","city_code":"12345"},
{"unit_id":"000265","name":"小区265","province":"湖北省","city_name":"咸宁","lat":"114.28","lng":"29.87","city_code":"12345"},
{"unit_id":"000266","name":"小区266","province":"湖北省","city_name":"阳新","lat":"115.22","lng":"29.83","city_code":"12345"},
{"unit_id":"000267","name":"小区267","province":"广东省","city_name":"广州","lat":"113.23","lng":"23.16","city_code":"12345"},
{"unit_id":"000268","name":"小区268","province":"广东省","city_name":"花县","lat":"113.19","lng":"23.4","city_code":"12345"},
{"unit_id":"000269","name":"小区269","province":"广东省","city_name":"新十","lat":"114.2","lng":"24.09","city_code":"12345"},
{"unit_id":"000270","name":"小区270","province":"广东省","city_name":"增城","lat":"113.81","lng":"23.13","city_code":"12345"},
{"unit_id":"000271","name":"小区271","province":"广东省","city_name":"从化","lat":"113.55","lng":"23.57","city_code":"12345"},
{"unit_id":"000272","name":"小区272","province":"广东省","city_name":"龙门","lat":"114.25","lng":"23.75","city_code":"12345"},
{"unit_id":"000273","name":"小区273","province":"广东省","city_name":"番禺","lat":"113.36","lng":"22.95","city_code":"12345"},
{"unit_id":"000274","name":"小区274","province":"广东省","city_name":"海口","lat":"110.35","lng":"20.02","city_code":"12345"},
{"unit_id":"000275","name":"小区275","province":"广东省","city_name":"汕头","lat":"116.69","lng":"23.39","city_code":"12345"},
{"unit_id":"000276","name":"小区276","province":"广东省","city_name":"洪江","lat":"110.38","lng":"21.2","city_code":"12345"},
{"unit_id":"000277","name":"小区277","province":"广东省","city_name":"茂名","lat":"110.88","lng":"21.68","city_code":"12345"},
{"unit_id":"000278","name":"小区278","province":"广东省","city_name":"佛山","lat":"113.11","lng":"23.05","city_code":"12345"},
{"unit_id":"000279","name":"小区279","province":"广东省","city_name":"江门","lat":"113.06","lng":"22.61","city_code":"12345"},
{"unit_id":"000280","name":"小区280","province":"广东省","city_name":"深圳","lat":"114.07","lng":"22.62","city_code":"12345"},
{"unit_id":"000281","name":"小区281","province":"广东省","city_name":"宝安","lat":"113.85","lng":"22.58","city_code":"12345"},
{"unit_id":"000282","name":"小区282","province":"广东省","city_name":"珠海","lat":"113.52","lng":"22.3","city_code":"12345"},
{"unit_id":"000283","name":"小区283","province":"广东省","city_name":"韶关","lat":"113.62","lng":"24.84","city_code":"12345"},
{"unit_id":"000284","name":"小区284","province":"广东省","city_name":"曲江","lat":"113.58","lng":"24.68","city_code":"12345"},
{"unit_id":"000285","name":"小区285","province":"广东省","city_name":"乐昌","lat":"113.35","lng":"25.14","city_code":"12345"},
{"unit_id":"000286","name":"小区286","province":"广东省","city_name":"仁化","lat":"113.73","lng":"25.11","city_code":"12345"},
{"unit_id":"000287","name":"小区287","province":"广东省","city_name":"南雄","lat":"114.33","lng":"25.14","city_code":"12345"},
{"unit_id":"000288","name":"小区288","province":"广东省","city_name":"始兴","lat":"114.08","lng":"24.78","city_code":"12345"},
{"unit_id":"000289","name":"小区289","province":"广东省","city_name":"翁源","lat":"114.13","lng":"24.36","city_code":"12345"},
{"unit_id":"000290","name":"小区290","province":"广东省","city_name":"佛岗","lat":"113.52","lng":"23.86","city_code":"12345"},
{"unit_id":"000291","name":"小区291","province":"广东省","city_name":"英德","lat":"113.38","lng":"24.17","city_code":"12345"},
{"unit_id":"000292","name":"小区292","province":"广东省","city_name":"清远","lat":"113.01","lng":"23.7","city_code":"12345"},
{"unit_id":"000293","name":"小区293","province":"广东省","city_name":"阳山","lat":"112.65","lng":"24.48","city_code":"12345"},
{"unit_id":"000294","name":"小区294","province":"广东省","city_name":"连县","lat":"112.4","lng":"24.77","city_code":"12345"},
{"unit_id":"000295","name":"小区295","province":"广东省","city_name":"连山","lat":"112.07","lng":"24.59","city_code":"12345"},
{"unit_id":"000296","name":"小区296","province":"广东省","city_name":"连南","lat":"112.28","lng":"24.73","city_code":"12345"},
{"unit_id":"000297","name":"小区297","province":"广东省","city_name":"乳源","lat":"113.28","lng":"24.77","city_code":"12345"},
{"unit_id":"000298","name":"小区298","province":"广东省","city_name":"惠州","lat":"114.4","lng":"23.09","city_code":"12345"},
{"unit_id":"000299","name":"小区299","province":"广东省","city_name":"惠阳","lat":"114.4","lng":"23.09","city_code":"12345"},
{"unit_id":"000300","name":"小区300","province":"广东省","city_name":"博罗","lat":"114.28","lng":"23.18","city_code":"12345"},
{"unit_id":"000301","name":"小区301","province":"广东省","city_name":"河源","lat":"114.68","lng":"23.73","city_code":"12345"},
{"unit_id":"000302","name":"小区302","province":"广东省","city_name":"连平","lat":"114.48","lng":"24.39","city_code":"12345"},
{"unit_id":"000303","name":"小区303","province":"广东省","city_name":"和平","lat":"114.89","lng":"24.45","city_code":"12345"},
{"unit_id":"000304","name":"小区304","province":"广东省","city_name":"龙川","lat":"115.25","lng":"24.09","city_code":"12345"},
{"unit_id":"000305","name":"小区305","province":"广东省","city_name":"紫金","lat":"115.18","lng":"23.64","city_code":"12345"},
{"unit_id":"000306","name":"小区306","province":"广东省","city_name":"惠东","lat":"114.7","lng":"22.97","city_code":"12345"},
{"unit_id":"000307","name":"小区307","province":"广东省","city_name":"东莞","lat":"113.75","lng":"23.04","city_code":"12345"},
{"unit_id":"000308","name":"小区308","province":"广东省","city_name":"梅州","lat":"116.1","lng":"24.55","city_code":"12345"},
{"unit_id":"000309","name":"小区309","province":"广东省","city_name":"梅县","lat":"116.1","lng":"24.55","city_code":"12345"},
{"unit_id":"000310","name":"小区310","province":"广东省","city_name":"平远","lat":"117.9","lng":"24.59","city_code":"12345"},
{"unit_id":"000311","name":"小区311","province":"广东省","city_name":"蕉岭","lat":"116.18","lng":"24.66","city_code":"12345"},
{"unit_id":"000312","name":"小区312","province":"广东省","city_name":"大埔","lat":"116.7","lng":"24.34","city_code":"12345"},
{"unit_id":"000313","name":"小区313","province":"广东省","city_name":"丰顺","lat":"116.18","lng":"23.78","city_code":"12345"},
{"unit_id":"000314","name":"小区314","province":"广东省","city_name":"五华","lat":"115.75","lng":"23.93","city_code":"12345"},
{"unit_id":"000315","name":"小区315","province":"广东省","city_name":"兴宁","lat":"115.75","lng":"24.15","city_code":"12345"},
{"unit_id":"000316","name":"小区316","province":"广东省","city_name":"潮州","lat":"116.63","lng":"23.68","city_code":"12345"},
{"unit_id":"000317","name":"小区317","province":"广东省","city_name":"澄海","lat":"116.8","lng":"23.48","city_code":"12345"},
{"unit_id":"000318","name":"小区318","province":"广东省","city_name":"潮安","lat":"116.63","lng":"23.68","city_code":"12345"},
{"unit_id":"000319","name":"小区319","province":"广东省","city_name":"饶平","lat":"117.01","lng":"23.7","city_code":"12345"},
{"unit_id":"000320","name":"小区320","province":"广东省","city_name":"南澳","lat":"117.03","lng":"23.44","city_code":"12345"},
{"unit_id":"000321","name":"小区321","province":"广东省","city_name":"潮阳","lat":"116.61","lng":"23.27","city_code":"12345"},
{"unit_id":"000322","name":"小区322","province":"广东省","city_name":"惠来","lat":"116.29","lng":"23.07","city_code":"12345"},
{"unit_id":"000323","name":"小区323","province":"广东省","city_name":"陆丰","lat":"117.64","lng":"22.95","city_code":"12345"},
{"unit_id":"000324","name":"小区324","province":"广东省","city_name":"海丰","lat":"117.33","lng":"22.98","city_code":"12345"},
{"unit_id":"000325","name":"小区325","province":"广东省","city_name":"普宁","lat":"116.17","lng":"23.29","city_code":"12345"},
{"unit_id":"000326","name":"小区326","province":"广东省","city_name":"揭西","lat":"115.82","lng":"23.45","city_code":"12345"},
{"unit_id":"000327","name":"小区327","province":"广东省","city_name":"揭阳","lat":"116.35","lng":"23.55","city_code":"12345"},
{"unit_id":"000328","name":"小区328","province":"广东省","city_name":"南海","lat":"113.11","lng":"23.05","city_code":"12345"},
{"unit_id":"000329","name":"小区329","province":"广东省","city_name":"三水","lat":"112.89","lng":"23.18","city_code":"12345"},
{"unit_id":"000330","name":"小区330","province":"广东省","city_name":"顺德","lat":"113.24","lng":"22.84","city_code":"12345"},
{"unit_id":"000331","name":"小区331","province":"广东省","city_name":"中山","lat":"113.38","lng":"22.52","city_code":"12345"},
{"unit_id":"000332","name":"小区332","province":"青海省","city_name":"西宁","lat":"101.74","lng":"36.56","city_code":"12345"},
{"unit_id":"000333","name":"小区333","province":"青海省","city_name":"大通","lat":"101.67","lng":"36.92","city_code":"12345"},
{"unit_id":"000334","name":"小区334","province":"青海省","city_name":"平安","lat":"102.09","lng":"36.47","city_code":"12345"},
{"unit_id":"000335","name":"小区335","province":"青海省","city_name":"湟中","lat":"101.57","lng":"36.49","city_code":"12345"},
{"unit_id":"000336","name":"小区336","province":"青海省","city_name":"乐都","lat":"102.38","lng":"36.49","city_code":"12345"},
{"unit_id":"000337","name":"小区337","province":"青海省","city_name":"民和","lat":"102.8","lng":"36.3","city_code":"12345"},
{"unit_id":"000338","name":"小区338","province":"青海省","city_name":"湟源","lat":"101.28","lng":"36.72","city_code":"12345"},
{"unit_id":"000339","name":"小区339","province":"青海省","city_name":"互助","lat":"101.95","lng":"36.84","city_code":"12345"},
{"unit_id":"000340","name":"小区340","province":"青海省","city_name":"化隆","lat":"102.3","lng":"36.11","city_code":"12345"},
{"unit_id":"000341","name":"小区341","province":"青海省","city_name":"循化","lat":"102.46","lng":"35.84","city_code":"12345"},
{"unit_id":"000342","name":"小区342","province":"青海省","city_name":"门源","lat":"101.62","lng":"37.37","city_code":"12345"},
{"unit_id":"000343","name":"小区343","province":"青海省","city_name":"海晏","lat":"100.99","lng":"36.89","city_code":"12345"},
{"unit_id":"000344","name":"小区344","province":"青海省","city_name":"刚察","lat":"100.17","lng":"37.32","city_code":"12345"},
{"unit_id":"000345","name":"小区345","province":"青海省","city_name":"祁连","lat":"100.22","lng":"38.2","city_code":"12345"},
{"unit_id":"000346","name":"小区346","province":"青海省","city_name":"同仁","lat":"102","lng":"35.54","city_code":"12345"},
{"unit_id":"000347","name":"小区347","province":"青海省","city_name":"尖扎","lat":"102","lng":"35.92","city_code":"12345"},
{"unit_id":"000348","name":"小区348","province":"青海省","city_name":"泽库","lat":"101.5","lng":"35.03","city_code":"12345"},
{"unit_id":"000349","name":"小区349","province":"四川省","city_name":"成都","lat":"104.06","lng":"30.67","city_code":"12345"},
{"unit_id":"000350","name":"小区350","province":"四川省","city_name":"金堂","lat":"104.32","lng":"30.88","city_code":"12345"},
{"unit_id":"000351","name":"小区351","province":"四川省","city_name":"双流","lat":"104.94","lng":"30.57","city_code":"12345"},
{"unit_id":"000352","name":"小区352","province":"四川省","city_name":"蒲江","lat":"103.29","lng":"30.2","city_code":"12345"},
{"unit_id":"000353","name":"小区353","province":"四川省","city_name":"郫县","lat":"103.86","lng":"30.8","city_code":"12345"},
{"unit_id":"000354","name":"小区354","province":"四川省","city_name":"新都","lat":"104.13","lng":"30.82","city_code":"12345"},
{"unit_id":"000355","name":"小区355","province":"四川省","city_name":"来易","lat":"102.15","lng":"26.9","city_code":"12345"},
{"unit_id":"000356","name":"小区356","province":"四川省","city_name":"盐边","lat":"101.56","lng":"26.9","city_code":"12345"},
{"unit_id":"000357","name":"小区357","province":"四川省","city_name":"温江","lat":"103.81","lng":"30.97","city_code":"12345"},
{"unit_id":"000358","name":"小区358","province":"四川省","city_name":"灌县","lat":"103.61","lng":"31.04","city_code":"12345"},
{"unit_id":"000359","name":"小区359","province":"四川省","city_name":"彭县","lat":"103.94","lng":"30.99","city_code":"12345"},
{"unit_id":"000360","name":"小区360","province":"四川省","city_name":"什邡","lat":"104.16","lng":"31.13","city_code":"12345"},
{"unit_id":"000361","name":"小区361","province":"四川省","city_name":"广汉","lat":"104.25","lng":"30.99","city_code":"12345"},
{"unit_id":"000362","name":"小区362","province":"四川省","city_name":"新津","lat":"103.78","lng":"30.42","city_code":"12345"},
{"unit_id":"000363","name":"小区363","province":"四川省","city_name":"邛崃","lat":"103.47","lng":"30.42","city_code":"12345"},
{"unit_id":"000364","name":"小区364","province":"四川省","city_name":"大邑","lat":"103.53","lng":"30.58","city_code":"12345"},
{"unit_id":"000365","name":"小区365","province":"四川省","city_name":"崇庆","lat":"103.69","lng":"30.63","city_code":"12345"},
{"unit_id":"000366","name":"小区366","province":"四川省","city_name":"绵阳","lat":"104.73","lng":"31.48","city_code":"12345"},
{"unit_id":"000367","name":"小区367","province":"四川省","city_name":"江油","lat":"104.7","lng":"31.8","city_code":"12345"},
{"unit_id":"000368","name":"小区368","province":"四川省","city_name":"青川","lat":"105.21","lng":"32.59","city_code":"12345"},
{"unit_id":"000369","name":"小区369","province":"四川省","city_name":"平武","lat":"104.52","lng":"32.42","city_code":"12345"},
{"unit_id":"000370","name":"小区370","province":"四川省","city_name":"光元","lat":"105.86","lng":"32.44","city_code":"12345"},
{"unit_id":"000371","name":"小区371","province":"四川省","city_name":"旺苍","lat":"106.33","lng":"32.25","city_code":"12345"}
]